{"ticker":"BHP","company_profile":{"ticker":"BHP","company_name":"BHP Group","exchange":"ASX","primary_commodity":"Diversified"},"projects":[],"geoscience_assets":{"mines":[{"name":"Olympic Dam","company":"BHP","commodity":"Copper, Gold, Uranium","status":"Operating","mine_type":"Underground","state":"SA","region":"Far North","deposit_type":"IOCG","lat":-30.44,"lng":136.88,"resource_mt":10100.0,"grade":0.77,"grade_unit":"% Cu","source":"GA/DMIRS","layer_type":"operating_mine"},{"name":"Mining Area C","company":"BHP","commodity":"Iron Ore","status":"Operating","mine_type":"Open Pit","state":"WA","region":"Pilbara","deposit_type":"Channel Iron Deposit","lat":-23.38,"lng":119.15,"resource_mt":2200.0,"grade":61.0,"grade_unit":"% Fe","source":"GA/DMIRS","layer_type":"operating_mine"},{"name":"South Flank","company":"BHP","commodity":"Iron Ore","status":"Operating","mine_type":"Open Pit","state":"WA","region":"Pilbara","deposit_type":"BIF-hosted Iron","lat":-23.12,"lng":119.05,"resource_mt":1800.0,"grade":62.0,"grade_unit":"% Fe","source":"GA/DMIRS","layer_type":"operating_mine"},{"name":"Newman (Mt Whaleback)","company":"BHP","commodity":"Iron Ore","status":"Operating","mine_type":"Open Pit","state":"WA","region":"Pilbara","deposit_type":"BIF-hosted Iron","lat":-23.35,"lng":119.73,"resource_mt":1200.0,"grade":63.5,"grade_unit":"% Fe","source":"GA/DMIRS","layer_type":"operating_mine"},{"name":"Carrapateena","company":"BHP","commodity":"Copper, Gold","status":"Operating","mine_type":"Underground","state":"SA","region":"Far North","deposit_type":"IOCG","lat":-31.37,"lng":137.01,"resource_mt":950.0,"grade":0.68,"grade_unit":"% Cu","source":"GA/DMIRS","layer_type":"operating_mine"},{"name":"Mt Arthur Coal","company":"BHP","commodity":"Thermal Coal","status":"Operating","mine_type":"Open Pit","state":"NSW","region":"Hunter Valley","deposit_type":"Permian Coal","lat":-32.3,"lng":150.93,"resource_mt":900.0,"grade":null,"grade_unit":null,"source":"GA/DMIRS","layer_type":"operating_mine"},{"name":"Jimblebar","company":"BHP","commodity":"Iron Ore","status":"Operating","mine_type":"Open Pit","state":"WA","region":"Pilbara","deposit_type":"Channel Iron Deposit","lat":-23.22,"lng":120.15,"resource_mt":800.0,"grade":60.5,"grade_unit":"% Fe","source":"GA/DMIRS","layer_type":"operating_mine"},{"name":"Mt Keith Nickel","company":"BHP","commodity":"Nickel","status":"Care & Maintenance","mine_type":"Open Pit","state":"WA","region":"Goldfields-Esperance","deposit_type":"Komatiite Nickel","lat":-27.24,"lng":120.54,"resource_mt":475.0,"grade":0.52,"grade_unit":"% Ni","source":"GA/DMIRS","layer_type":"developing_mine"},{"name":"West Musgrave Ni-Cu","company":"BHP / OZ Minerals","commodity":"Nickel, Copper","status":"Developing","mine_type":"Open Pit","state":"WA","region":"Goldfields-Esperance","deposit_type":"Magmatic Ni-Cu Sulphide","lat":-26.07,"lng":127.3,"resource_mt":340.0,"grade":0.34,"grade_unit":"% Ni","source":"GA/DMIRS","layer_type":"critical_mineral"},{"name":"Prominent Hill","company":"BHP","commodity":"Copper, Gold","status":"Operating","mine_type":"Underground","state":"SA","region":"Far North","deposit_type":"IOCG","lat":-29.72,"lng":135.53,"resource_mt":195.0,"grade":1.3,"grade_unit":"% Cu","source":"GA/DMIRS","layer_type":"operating_mine"},{"name":"Leinster Nickel","company":"BHP","commodity":"Nickel","status":"Care & Maintenance","mine_type":"Underground","state":"WA","region":"Goldfields-Esperance","deposit_type":"Komatiite Nickel","lat":-27.8,"lng":120.7,"resource_mt":45.0,"grade":2.5,"grade_unit":"% Ni","source":"GA/DMIRS","layer_type":"developing_mine"},{"name":"Mt Newman Orebody 17","company":"BHP Group","commodity":"Fe","status":"Care and Maintenance","mine_type":"Openpit","state":"WA","region":"","deposit_type":"Mine","lat":-23.319454999999948,"lng":120.07190900000012,"resource_mt":null,"grade":null,"grade_unit":"","source":"DMIRS_SLIP","layer_type":"developing_mine"},{"name":"Mt Newman Orebody 23","company":"BHP Group","commodity":"Fe","status":"Care and Maintenance","mine_type":"Openpit","state":"WA","region":"","deposit_type":"Mine","lat":-23.31447499999996,"lng":119.85010800000009,"resource_mt":null,"grade":null,"grade_unit":"","source":"DMIRS_SLIP","layer_type":"developing_mine"},{"name":"Mt Newman Orebody 25 - Pit 1","company":"BHP Group","commodity":"Fe","status":"Care and Maintenance","mine_type":"Openpit","state":"WA","region":"","deposit_type":"Mine","lat":-23.328236999999945,"lng":119.78701300000012,"resource_mt":null,"grade":null,"grade_unit":"","source":"DMIRS_SLIP","layer_type":"developing_mine"},{"name":"Newman Eastern Satellite Group","company":"BHP Group","commodity":"Fe","status":"Care and Maintenance","mine_type":"Openpit","state":"WA","region":"","deposit_type":"Mine","lat":-23.31447499999996,"lng":119.85010800000009,"resource_mt":null,"grade":null,"grade_unit":"","source":"DMIRS_SLIP","layer_type":"developing_mine"},{"name":"Central Marra Mamba","company":"BHP","commodity":"Fe","status":"Operating","mine_type":"Openpit","state":"WA","region":"","deposit_type":"Mine","lat":-23.14470599999993,"lng":119.0032050000001,"resource_mt":null,"grade":null,"grade_unit":"","source":"DMIRS_SLIP","layer_type":"operating_mine"},{"name":"Deception / Cliffs","company":"BHP Group","commodity":"Fe, Hem","status":"Operating","mine_type":"Openpit","state":"WA","region":"","deposit_type":"Mine","lat":-29.85038499999996,"lng":119.28092600000002,"resource_mt":null,"grade":null,"grade_unit":"","source":"DMIRS_SLIP","layer_type":"operating_mine"},{"name":"Hamersley - Yandicoogina Mainline Railway and Infrastructure","company":"BHP Group","commodity":"Fe","status":"Operating","mine_type":"Railway","state":"WA","region":"","deposit_type":"Infrastructure","lat":-23.162427999999977,"lng":118.75520100000006,"resource_mt":null,"grade":null,"grade_unit":"","source":"DMIRS_SLIP","layer_type":"operating_mine"},{"name":"Jimblebar Iron Ore Group","company":"BHP Group","commodity":"Fe","status":"Operating","mine_type":"Openpit","state":"WA","region":"","deposit_type":"Mine","lat":-23.380315999999937,"lng":120.13711,"resource_mt":null,"grade":null,"grade_unit":"","source":"DMIRS_SLIP","layer_type":"operating_mine"},{"name":"Jimblebar Processing Plant","company":"BHP Group","commodity":"Fe","status":"Operating","mine_type":"Processing Plant","state":"WA","region":"","deposit_type":"Infrastructure","lat":-23.384327999999982,"lng":120.12315200000012,"resource_mt":null,"grade":null,"grade_unit":"","source":"DMIRS_SLIP","layer_type":"operating_mine"},{"name":"Jimblebar Train Load-Out Facility and Processing Plant","company":"BHP Group","commodity":"Fe","status":"Operating","mine_type":"Handling-loading-storage","state":"WA","region":"","deposit_type":"Infrastructure","lat":-23.36923299999995,"lng":120.05107200000009,"resource_mt":null,"grade":null,"grade_unit":"","source":"DMIRS_SLIP","layer_type":"operating_mine"},{"name":"Leinster West / Cottee","company":"BHP Group","commodity":"Au","status":"Operating","mine_type":"Scraping-Detecting area","state":"WA","region":"","deposit_type":"Mine","lat":-27.921194999999955,"lng":120.61700700000006,"resource_mt":null,"grade":null,"grade_unit":"","source":"DMIRS_SLIP","layer_type":"operating_mine"},{"name":"MAC - South Flank","company":"BHP Group","commodity":"Fe","status":"Operating","mine_type":"Openpit","state":"WA","region":"","deposit_type":"Mine","lat":-22.99865699999998,"lng":118.92331200000001,"resource_mt":null,"grade":null,"grade_unit":"","source":"DMIRS_SLIP","layer_type":"operating_mine"},{"name":"Mining Area C Group","company":"BHP Group","commodity":"Fe","status":"Operating","mine_type":"Openpit","state":"WA","region":"","deposit_type":"Mine","lat":-22.929835999999966,"lng":118.96261100000004,"resource_mt":null,"grade":null,"grade_unit":"","source":"DMIRS_SLIP","layer_type":"operating_mine"},{"name":"Mining Area C Production Group","company":"BHP Group","commodity":"Fe","status":"Operating","mine_type":"Openpit","state":"WA","region":"","deposit_type":"Mine","lat":-22.929835999999966,"lng":118.96261100000004,"resource_mt":null,"grade":null,"grade_unit":"","source":"DMIRS_SLIP","layer_type":"operating_mine"},{"name":"Mt Newman Orebody 18 East - Shovelanna Hill","company":"BHP Group","commodity":"Fe","status":"Operating","mine_type":"Openpit","state":"WA","region":"","deposit_type":"Mine","lat":-23.32057199999997,"lng":120.05731300000002,"resource_mt":null,"grade":null,"grade_unit":"","source":"DMIRS_SLIP","layer_type":"operating_mine"},{"name":"Mt Newman Orebody 18 Main - Shovelanna Hill","company":"BHP Group","commodity":"Fe","status":"Operating","mine_type":"Openpit","state":"WA","region":"","deposit_type":"Mine","lat":-23.33330099999995,"lng":120.04203000000007,"resource_mt":null,"grade":null,"grade_unit":"","source":"DMIRS_SLIP","layer_type":"operating_mine"},{"name":"Mt Newman Orebody 24 Crusher and Workshop areas","company":"BHP Group","commodity":"Fe","status":"Operating","mine_type":"Processing Plant","state":"WA","region":"","deposit_type":"Infrastructure","lat":-23.307745999999952,"lng":119.79405200000008,"resource_mt":null,"grade":null,"grade_unit":"","source":"DMIRS_SLIP","layer_type":"operating_mine"},{"name":"Mt Newman Orebody 24 East","company":"BHP Group","commodity":"Fe","status":"Operating","mine_type":"Openpit","state":"WA","region":"","deposit_type":"Mine","lat":-23.30418499999996,"lng":119.81080900000006,"resource_mt":null,"grade":null,"grade_unit":"","source":"DMIRS_SLIP","layer_type":"operating_mine"},{"name":"Mt Newman Orebody 24 Far East","company":"BHP Group","commodity":"Fe","status":"Operating","mine_type":"Openpit","state":"WA","region":"","deposit_type":"Mine","lat":-23.305294999999944,"lng":119.82580800000005,"resource_mt":null,"grade":null,"grade_unit":"","source":"DMIRS_SLIP","layer_type":"operating_mine"},{"name":"Mt Newman Orebody 24 Far West","company":"BHP Group","commodity":"Fe","status":"Operating","mine_type":"Openpit","state":"WA","region":"","deposit_type":"Mine","lat":-23.292235999999946,"lng":119.758013,"resource_mt":null,"grade":null,"grade_unit":"","source":"DMIRS_SLIP","layer_type":"operating_mine"},{"name":"Mt Newman Orebody 24 Intermediate","company":"BHP Group","commodity":"Fe","status":"Operating","mine_type":"Openpit","state":"WA","region":"","deposit_type":"Mine","lat":-23.300036999999975,"lng":119.79240700000003,"resource_mt":null,"grade":null,"grade_unit":"","source":"DMIRS_SLIP","layer_type":"operating_mine"},{"name":"Mt Newman Orebody 24 Train Loadout and Rail Loop","company":"BHP Group","commodity":"Fe","status":"Operating","mine_type":"Handling-loading-storage","state":"WA","region":"","deposit_type":"Infrastructure","lat":-23.30971999999997,"lng":119.7926040000001,"resource_mt":null,"grade":null,"grade_unit":"","source":"DMIRS_SLIP","layer_type":"operating_mine"},{"name":"Mt Newman Orebody 24 West","company":"BHP Group","commodity":"Fe","status":"Operating","mine_type":"Openpit","state":"WA","region":"","deposit_type":"Mine","lat":-23.295285999999976,"lng":119.77360800000008,"resource_mt":null,"grade":null,"grade_unit":"","source":"DMIRS_SLIP","layer_type":"operating_mine"},{"name":"Mt Newman Orebody 25 New Crushing Plant","company":"BHP Group","commodity":"Fe","status":"Operating","mine_type":"Processing Plant","state":"WA","region":"","deposit_type":"Infrastructure","lat":-23.339616999999976,"lng":119.80011700000011,"resource_mt":null,"grade":null,"grade_unit":"","source":"DMIRS_SLIP","layer_type":"operating_mine"},{"name":"Mt Newman Orebody 25 - Pit 3","company":"BHP Group","commodity":"Fe","status":"Operating","mine_type":"Openpit","state":"WA","region":"","deposit_type":"Mine","lat":-23.329935999999975,"lng":119.81830800000012,"resource_mt":null,"grade":null,"grade_unit":"","source":"DMIRS_SLIP","layer_type":"operating_mine"},{"name":"Mt Newman Orebody 25 - Pit 4","company":"BHP Group","commodity":"Fe","status":"Operating","mine_type":"Openpit","state":"WA","region":"","deposit_type":"Mine","lat":-23.332036999999957,"lng":119.78436800000009,"resource_mt":null,"grade":null,"grade_unit":"","source":"DMIRS_SLIP","layer_type":"operating_mine"},{"name":"Mt Newman Orebody 25 Processing Plant","company":"BHP Group","commodity":"Fe","status":"Operating","mine_type":"Processing Plant","state":"WA","region":"","deposit_type":"Infrastructure","lat":-23.339615999999978,"lng":119.7998070000001,"resource_mt":null,"grade":null,"grade_unit":"","source":"DMIRS_SLIP","layer_type":"operating_mine"},{"name":"Mt Newman Orebody 29","company":"BHP Group","commodity":"Fe","status":"Operating","mine_type":"Openpit","state":"WA","region":"","deposit_type":"Mine","lat":-23.382245999999952,"lng":119.7038060000001,"resource_mt":null,"grade":null,"grade_unit":"","source":"DMIRS_SLIP","layer_type":"operating_mine"},{"name":"Mt Newman Orebody 30","company":"BHP Group","commodity":"Fe","status":"Operating","mine_type":"Openpit","state":"WA","region":"","deposit_type":"Mine","lat":-23.377224999999953,"lng":119.6623370000001,"resource_mt":null,"grade":null,"grade_unit":"","source":"DMIRS_SLIP","layer_type":"operating_mine"},{"name":"Mt Newman Orebody 35","company":"BHP Group","commodity":"Fe","status":"Operating","mine_type":"Openpit","state":"WA","region":"","deposit_type":"Mine","lat":-23.38963599999994,"lng":119.65731300000004,"resource_mt":null,"grade":null,"grade_unit":"","source":"DMIRS_SLIP","layer_type":"operating_mine"},{"name":"Mt Newman Railway Group","company":"BHP Group","commodity":"Fe","status":"Operating","mine_type":"Railway","state":"WA","region":"","deposit_type":"Infrastructure","lat":-23.372277999999937,"lng":119.68299700000011,"resource_mt":null,"grade":null,"grade_unit":"","source":"DMIRS_SLIP","layer_type":"operating_mine"},{"name":"Mt Whaleback","company":"BHP Group","commodity":"Fe","status":"Operating","mine_type":"Openpit","state":"WA","region":"","deposit_type":"Mine","lat":-23.36534699999993,"lng":119.67541000000006,"resource_mt":null,"grade":null,"grade_unit":"","source":"DMIRS_SLIP","layer_type":"operating_mine"},{"name":"Newman Hub Central Processing Plant","company":"BHP Group","commodity":"Fe","status":"Operating","mine_type":"Processing Plant","state":"WA","region":"","deposit_type":"Infrastructure","lat":-23.37698699999993,"lng":119.67670700000008,"resource_mt":null,"grade":null,"grade_unit":"","source":"DMIRS_SLIP","layer_type":"operating_mine"},{"name":"Newman - Mt Whaleback Group","company":"BHP Group","commodity":"Fe","status":"Operating","mine_type":"Openpit","state":"WA","region":"","deposit_type":"Mine","lat":-23.36534699999993,"lng":119.67541000000006,"resource_mt":null,"grade":null,"grade_unit":"","source":"DMIRS_SLIP","layer_type":"operating_mine"},{"name":"Newman Processing Plant","company":"BHP Group","commodity":"Fe","status":"Operating","mine_type":"Processing Plant","state":"WA","region":"","deposit_type":"Infrastructure","lat":-23.371234999999956,"lng":119.68023400000004,"resource_mt":null,"grade":null,"grade_unit":"","source":"DMIRS_SLIP","layer_type":"operating_mine"},{"name":"Newman Railway and Train Loadout Facility","company":"BHP Group","commodity":"Fe","status":"Operating","mine_type":"Railway","state":"WA","region":"","deposit_type":"Infrastructure","lat":-23.372277999999937,"lng":119.68299700000011,"resource_mt":null,"grade":null,"grade_unit":"","source":"DMIRS_SLIP","layer_type":"operating_mine"},{"name":"Newman SW TSF","company":"BHP Group","commodity":"Fe","status":"Operating","mine_type":"Tailings storage facility","state":"WA","region":"","deposit_type":"Infrastructure","lat":-23.387264999999957,"lng":119.67157400000008,"resource_mt":null,"grade":null,"grade_unit":"","source":"DMIRS_SLIP","layer_type":"operating_mine"},{"name":"North Marra Mamba East Pits 1-4","company":"BHP","commodity":"Fe","status":"Operating","mine_type":"Openpit","state":"WA","region":"","deposit_type":"Mine","lat":-23.12700099999995,"lng":119.07418700000005,"resource_mt":null,"grade":null,"grade_unit":"","source":"DMIRS_SLIP","layer_type":"operating_mine"},{"name":"North Marra Mamba West","company":"BHP","commodity":"Fe","status":"Operating","mine_type":"Openpit","state":"WA","region":"","deposit_type":"Mine","lat":-23.122631999999953,"lng":119.04878700000006,"resource_mt":null,"grade":null,"grade_unit":"","source":"DMIRS_SLIP","layer_type":"operating_mine"},{"name":"North Marra Mamba West Dump","company":"BHP","commodity":"Fe","status":"Operating","mine_type":"Dump (waste)","state":"WA","region":"","deposit_type":"Infrastructure","lat":-23.12159699999995,"lng":119.0439070000001,"resource_mt":null,"grade":null,"grade_unit":"","source":"DMIRS_SLIP","layer_type":"operating_mine"},{"name":"RGP4 Jimblebar Construction Site","company":"BHP Group","commodity":"Fe","status":"Operating","mine_type":"Other","state":"WA","region":"","deposit_type":"Infrastructure","lat":-23.384327999999982,"lng":120.12315200000012,"resource_mt":null,"grade":null,"grade_unit":"","source":"DMIRS_SLIP","layer_type":"operating_mine"},{"name":"South Jimblebar - Central 1a-b","company":"BHP Group","commodity":"Fe","status":"Operating","mine_type":"Openpit","state":"WA","region":"","deposit_type":"Mine","lat":-23.39570699999996,"lng":120.11830400000008,"resource_mt":null,"grade":null,"grade_unit":"","source":"DMIRS_SLIP","layer_type":"operating_mine"},{"name":"Wonmunna Borefield","company":"BHP","commodity":"Fe","status":"Operating","mine_type":"Borefield","state":"WA","region":"","deposit_type":"Infrastructure","lat":-23.123189999999965,"lng":119.05548500000009,"resource_mt":null,"grade":null,"grade_unit":"","source":"DMIRS_SLIP","layer_type":"operating_mine"},{"name":"Wonmunna Camp","company":"BHP","commodity":"Fe","status":"Operating","mine_type":"Town/Village/Camp","state":"WA","region":"","deposit_type":"Infrastructure","lat":-23.122076999999933,"lng":119.03201200000001,"resource_mt":null,"grade":null,"grade_unit":"","source":"DMIRS_SLIP","layer_type":"operating_mine"},{"name":"Wonmunna Environmental Group","company":"BHP","commodity":"Fe","status":"Operating","mine_type":"Environment","state":"WA","region":"","deposit_type":"Other","lat":-23.14470599999993,"lng":119.0032050000001,"resource_mt":null,"grade":null,"grade_unit":"","source":"DMIRS_SLIP","layer_type":"operating_mine"},{"name":"Wonmunna Environmental Group Tenements","company":"BHP","commodity":"Fe","status":"Operating","mine_type":"Environment","state":"WA","region":"","deposit_type":"Other","lat":-23.14470599999993,"lng":119.0032050000001,"resource_mt":null,"grade":null,"grade_unit":"","source":"DMIRS_SLIP","layer_type":"operating_mine"},{"name":"Wonmunna Infrastructure Corridor","company":"BHP","commodity":"Fe","status":"Operating","mine_type":"Handling-loading-storage","state":"WA","region":"","deposit_type":"Infrastructure","lat":-23.12646399999994,"lng":119.03902800000003,"resource_mt":null,"grade":null,"grade_unit":"","source":"DMIRS_SLIP","layer_type":"operating_mine"},{"name":"Wonmunna Office","company":"BHP","commodity":"Fe","status":"Operating","mine_type":"Building","state":"WA","region":"","deposit_type":"Infrastructure","lat":-23.132496999999944,"lng":119.04020200000002,"resource_mt":null,"grade":null,"grade_unit":"","source":"DMIRS_SLIP","layer_type":"operating_mine"},{"name":"Wonmunna Plant","company":"BHP","commodity":"Fe","status":"Operating","mine_type":"Processing Plant","state":"WA","region":"","deposit_type":"Infrastructure","lat":-23.12994299999997,"lng":119.04280500000004,"resource_mt":null,"grade":null,"grade_unit":"","source":"DMIRS_SLIP","layer_type":"operating_mine"},{"name":"Wonmunna Site Access Road (East)","company":"BHP","commodity":"Fe","status":"Operating","mine_type":"Road","state":"WA","region":"","deposit_type":"Infrastructure","lat":-23.112577999999928,"lng":119.05447400000003,"resource_mt":null,"grade":null,"grade_unit":"","source":"DMIRS_SLIP","layer_type":"operating_mine"},{"name":"Yandi 1 Rail Loop Ore Handling Plant","company":"BHP Group","commodity":"Fe","status":"Operating","mine_type":"Processing Plant","state":"WA","region":"","deposit_type":"Infrastructure","lat":-22.737660999999946,"lng":119.11795100000006,"resource_mt":null,"grade":null,"grade_unit":"","source":"DMIRS_SLIP","layer_type":"operating_mine"},{"name":"Yandi 1 Rail Loop Train Loadout Facility","company":"BHP Group","commodity":"Fe","status":"Operating","mine_type":"Handling-loading-storage","state":"WA","region":"","deposit_type":"Infrastructure","lat":-22.732205999999962,"lng":119.11607300000003,"resource_mt":null,"grade":null,"grade_unit":"","source":"DMIRS_SLIP","layer_type":"operating_mine"},{"name":"Yandi 2 Rail Loop Ore Handling Plant","company":"BHP Group","commodity":"Fe","status":"Operating","mine_type":"Processing Plant","state":"WA","region":"","deposit_type":"Infrastructure","lat":-22.721415999999977,"lng":119.040614,"resource_mt":null,"grade":null,"grade_unit":"","source":"DMIRS_SLIP","layer_type":"operating_mine"},{"name":"Yandi 2 Rail Loop Train Loadout Facility","company":"BHP Group","commodity":"Fe","status":"Operating","mine_type":"Handling-loading-storage","state":"WA","region":"","deposit_type":"Infrastructure","lat":-22.718504999999936,"lng":119.04240700000003,"resource_mt":null,"grade":null,"grade_unit":"","source":"DMIRS_SLIP","layer_type":"operating_mine"},{"name":"Yandi Accomodation Village","company":"BHP Group","commodity":"Fe","status":"Operating","mine_type":"Town/Village/Camp","state":"WA","region":"","deposit_type":"Infrastructure","lat":-22.705022999999983,"lng":119.11619300000007,"resource_mt":null,"grade":null,"grade_unit":"","source":"DMIRS_SLIP","layer_type":"operating_mine"},{"name":"Yandi Airport - BHP Facilities","company":"BHP Group","commodity":"Fe","status":"Operating","mine_type":"Airstrip","state":"WA","region":"","deposit_type":"Infrastructure","lat":-22.674271999999974,"lng":119.16526400000009,"resource_mt":null,"grade":null,"grade_unit":"","source":"DMIRS_SLIP","layer_type":"operating_mine"},{"name":"Yandi Airport - HI Facilities","company":"BHP Group","commodity":"Fe","status":"Operating","mine_type":"Airstrip","state":"WA","region":"","deposit_type":"Infrastructure","lat":-22.67426699999993,"lng":119.16526400000009,"resource_mt":null,"grade":null,"grade_unit":"","source":"DMIRS_SLIP","layer_type":"operating_mine"},{"name":"Yandicoogina - Junction Resources Group","company":"BHP Group","commodity":"Fe","status":"Operating","mine_type":"Openpit","state":"WA","region":"","deposit_type":"Mine","lat":-22.75515699999994,"lng":119.2350110000001,"resource_mt":null,"grade":null,"grade_unit":"","source":"DMIRS_SLIP","layer_type":"operating_mine"},{"name":"Yandi - Marillana Creek (Pilbara-wide CID resources) Group / BHPB","company":"BHP Group","commodity":"Fe","status":"Operating","mine_type":"Openpit","state":"WA","region":"","deposit_type":"Mine","lat":-22.718624999999975,"lng":119.06550800000002,"resource_mt":null,"grade":null,"grade_unit":"","source":"DMIRS_SLIP","layer_type":"operating_mine"},{"name":"Yandi Rail Crossing 299.9 km","company":"BHP Group","commodity":"Fe","status":"Operating","mine_type":"Road","state":"WA","region":"","deposit_type":"Infrastructure","lat":-22.60594999999995,"lng":118.06846600000006,"resource_mt":null,"grade":null,"grade_unit":"","source":"DMIRS_SLIP","layer_type":"operating_mine"},{"name":"Yandi Village and Construction Camp","company":"BHP Group","commodity":"Fe","status":"Operating","mine_type":"Town/Village/Camp","state":"WA","region":"","deposit_type":"Infrastructure","lat":-22.736629999999934,"lng":119.25904400000002,"resource_mt":null,"grade":null,"grade_unit":"","source":"DMIRS_SLIP","layer_type":"operating_mine"},{"name":"Greater Whaleback Environmental Group","company":"BHP Group","commodity":"Fe","status":"Proposed","mine_type":"Environment","state":"WA","region":"","deposit_type":"Other","lat":-23.418147999999974,"lng":119.61347100000012,"resource_mt":null,"grade":null,"grade_unit":"","source":"DMIRS_SLIP","layer_type":"developing_mine"},{"name":"Greater Whaleback Environmental Group Tenements","company":"BHP Group","commodity":"Fe","status":"Proposed","mine_type":"Environment","state":"WA","region":"","deposit_type":"Other","lat":-23.418147999999974,"lng":119.61347100000012,"resource_mt":null,"grade":null,"grade_unit":"","source":"DMIRS_SLIP","layer_type":"developing_mine"},{"name":"Mt Newman Orebody 29 - Transport and Infrastructure Corridor","company":"BHP Group","commodity":"Fe","status":"Proposed","mine_type":"Road","state":"WA","region":"","deposit_type":"Infrastructure","lat":-23.39644199999998,"lng":119.68447000000003,"resource_mt":null,"grade":null,"grade_unit":"","source":"DMIRS_SLIP","layer_type":"developing_mine"},{"name":"Mt Newman Orebody 31","company":"BHP Group","commodity":"Fe","status":"Proposed","mine_type":"Openpit","state":"WA","region":"","deposit_type":"Mine","lat":-23.316956999999945,"lng":120.09581200000002,"resource_mt":null,"grade":null,"grade_unit":"","source":"DMIRS_SLIP","layer_type":"developing_mine"},{"name":"Mt Newman Orebody 33","company":"BHP Group","commodity":"Fe","status":"Proposed","mine_type":"Openpit","state":"WA","region":"","deposit_type":"Mine","lat":-23.305294999999944,"lng":119.69630700000005,"resource_mt":null,"grade":null,"grade_unit":"","source":"DMIRS_SLIP","layer_type":"developing_mine"},{"name":"South Jimblebar - Central 2a-b","company":"BHP Group","commodity":"Fe, FeOre","status":"Proposed","mine_type":"Openpit","state":"WA","region":"","deposit_type":"Mine","lat":-23.397569999999973,"lng":120.14516400000002,"resource_mt":null,"grade":null,"grade_unit":"","source":"DMIRS_SLIP","layer_type":"developing_mine"},{"name":"South Jimblebar - East 1","company":"BHP Group","commodity":"Fe, FeOre","status":"Proposed","mine_type":"Openpit","state":"WA","region":"","deposit_type":"Mine","lat":-23.39534699999996,"lng":120.19337300000007,"resource_mt":null,"grade":null,"grade_unit":"","source":"DMIRS_SLIP","layer_type":"developing_mine"},{"name":"South Jimblebar - East 2","company":"BHP Group","commodity":"Fe, FeOre","status":"Proposed","mine_type":"Openpit","state":"WA","region":"","deposit_type":"Mine","lat":-23.395879999999977,"lng":120.178267,"resource_mt":null,"grade":null,"grade_unit":"","source":"DMIRS_SLIP","layer_type":"developing_mine"}],"mine_count":80,"mines_by_status":{"Operating":65,"Care & Maintenance":2,"Developing":1,"Care and Maintenance":4,"Proposed":8},"commodities_mined":["Au","Copper","Fe","FeOre","Gold","Hem","Iron Ore","Nickel","Thermal Coal","Uranium"],"deposits":[{"name":"Hamersley Iron Province","commodity":"Iron Ore","deposit_type":"BIF-hosted Iron Ore","state":"WA","region":"Pilbara","resource_size":"World Class"},{"name":"Musgrave Province Ni-Cu","commodity":"Nickel, Copper","deposit_type":"Magmatic Ni-Cu Sulphide","state":"WA","region":"Goldfields-Esperance","resource_size":"Emerging Province"},{"name":"Olympic Dam Expansion","commodity":"Copper, Gold, Uranium","deposit_type":"IOCG Mega-deposit","state":"SA","region":"Far North","resource_size":"World Class"}],"deposit_count":3,"boreholes":[{"name":"South Flank SFD001","purpose":"Resource Definition","depth_m":220.0,"drill_method":"RC","year_drilled":2015,"commodity":"Iron Ore","driller":"BHP","state":"WA","lat":-23.12,"lng":119.05},{"name":"Carrapateena CRD001","purpose":"Mineral Exploration","depth_m":950.0,"drill_method":"Diamond","year_drilled":2005,"commodity":"Copper, Gold","driller":"OZ Minerals","state":"SA","lat":-31.37,"lng":137.01},{"name":"Olympic Dam Discovery (RD1)","purpose":"Mineral Exploration","depth_m":300.0,"drill_method":"Diamond","year_drilled":1975,"commodity":"Copper, Gold, Uranium","driller":"Western Mining Corporation","state":"SA","lat":-30.44,"lng":136.88}],"borehole_count":3,"borehole_stats":{"total_holes":3,"total_meters_drilled":1470.0,"avg_depth_m":490.0,"max_depth_m":950.0,"year_range":"1975-2015","drill_methods":["Diamond","RC"]},"tenements":[{"tenement_id":"M26/0752","tenement_type":"Mining","holder":"BHP Billiton","commodity":"Iron Ore","area_ha":5600.0,"status":"Live","grant_date":"1990-01-01","end_date":"2040-01-01","lat":-23.35,"lng":119.73},{"tenement_id":"ML6738","tenement_type":"Mining","holder":"BHP","commodity":"Copper, Gold, Uranium","area_ha":16800.0,"status":"Live","grant_date":"1982-01-01","end_date":"2042-01-01","lat":-30.44,"lng":136.88}],"tenement_count":2,"total_tenement_area_ha":22400.0,"total_tenement_area_km2":224.0},"drilling_summary":{},"tenement_attribution":{"tenements_checked":2,"tenements_with_data":2,"total_attributed_drillholes":1,"total_attributed_geochem":0,"total_attributed_mines":3,"tenement_details":[{"tenement_id":"M26/0752","type":"Mining","commodity":"Iron Ore","area_ha":5600.0,"drillholes_within":0,"geochem_within":0,"mines_within":2},{"tenement_id":"ML6738","type":"Mining","commodity":"Copper, Gold, Uranium","area_ha":16800.0,"drillholes_within":1,"geochem_within":0,"mines_within":1}]},"resource_inventory":{"by_commodity":{"Cu":{"measured_mt":0,"indicated_mt":0,"inferred_mt":11245.0,"measured_grade":0,"indicated_grade":0,"inferred_grade":1.3,"measured_contained":0,"indicated_contained":0,"inferred_contained":86765000.0,"proven_mt":0,"probable_mt":0,"proven_contained":0,"probable_contained":0,"grade_unit":"% Cu","contained_unit":"","source":"DMIRS_supplemental","total_resource_mt":11245.0,"total_reserve_mt":0,"m_and_i_mt":0,"total_contained_metal":86765000.0,"reserve_contained_metal":0},"Fe":{"measured_mt":0,"indicated_mt":0,"inferred_mt":6000.0,"measured_grade":0,"indicated_grade":0,"inferred_grade":60.5,"measured_contained":0,"indicated_contained":0,"inferred_contained":3704000000.0,"proven_mt":0,"probable_mt":0,"proven_contained":0,"probable_contained":0,"grade_unit":"% Fe","contained_unit":"","source":"DMIRS_supplemental","total_resource_mt":6000.0,"total_reserve_mt":0,"m_and_i_mt":0,"total_contained_metal":3704000000.0,"reserve_contained_metal":0},"Ni":{"measured_mt":0,"indicated_mt":0,"inferred_mt":860.0,"measured_grade":0,"indicated_grade":0,"inferred_grade":2.5,"measured_contained":0,"indicated_contained":0,"inferred_contained":4751000.0,"proven_mt":0,"probable_mt":0,"proven_contained":0,"probable_contained":0,"grade_unit":"% Ni","contained_unit":"","source":"DMIRS_supplemental","total_resource_mt":860.0,"total_reserve_mt":0,"m_and_i_mt":0,"total_contained_metal":4751000.0,"reserve_contained_metal":0}},"commodity_count":3,"total_resource_mt":18105.0,"total_reserve_mt":0},"valuation_metrics":{"total_in_situ_value_usd":389315707250.0,"isv_breakdown":[{"commodity":"Fe","contained_metal":3704000000.0,"contained_unit":"t","spot_price_usd":105.0,"in_situ_value_usd":388920000000.0},{"commodity":"Cu","contained_metal":86765000.0,"contained_unit":"t","spot_price_usd":4.15,"in_situ_value_usd":360074750.0},{"commodity":"Ni","contained_metal":4751000.0,"contained_unit":"t","spot_price_usd":7.5,"in_situ_value_usd":35632500.0}]},"summary":{"company":"BHP Group","market_cap_usd":null,"share_price":null,"projects_count":0,"projects_with_resources":0,"projects_with_reserves":0,"projects_with_economics":0,"total_resource_mt":18105.0,"total_reserve_mt":0,"commodities":["Cu","Fe","Ni"],"total_drill_holes":0,"total_meters_drilled":0,"dmirs_mine_sites":80,"dmirs_deposits":3,"dmirs_boreholes":3,"tenement_count":2,"data_within_tenements":{"drillholes":1,"geochem_samples":0,"mine_sites":3},"in_situ_value_usd":389315707250.0,"isv_commodity_count":3,"price_to_isv":null,"ev_to_isv":null,"total_project_npv_usd":null,"p_nav":null,"nav_per_share":null,"data_sources":["DMIRS_mine_sites","DMIRS_boreholes","tenement_spatial"]}}
