{"ticker":"NST","company_profile":{"ticker":"NST","company_name":"Northern Star","exchange":"ASX","primary_commodity":"Gold"},"projects":[],"geoscience_assets":{"mines":[{"name":"KCGM Super Pit","company":"Northern Star Resources","commodity":"Gold","status":"Operating","mine_type":"Open Pit, Underground","state":"WA","region":"Goldfields-Esperance","deposit_type":"Orogenic Gold","lat":-30.78,"lng":121.505,"resource_mt":140.0,"grade":2.2,"grade_unit":"g/t Au","source":"GA/DMIRS","layer_type":"operating_mine"},{"name":"Thunderbox Gold Mine","company":"Northern Star Resources","commodity":"Gold","status":"Operating","mine_type":"Open Pit, Underground","state":"WA","region":"Goldfields-Esperance","deposit_type":"Orogenic Gold","lat":-27.59,"lng":121.18,"resource_mt":45.0,"grade":1.3,"grade_unit":"g/t Au","source":"GA/DMIRS","layer_type":"operating_mine"},{"name":"Jundee Gold Mine","company":"Northern Star Resources","commodity":"Gold","status":"Operating","mine_type":"Underground","state":"WA","region":"Goldfields-Esperance","deposit_type":"Orogenic Gold","lat":-26.34,"lng":120.64,"resource_mt":25.0,"grade":4.1,"grade_unit":"g/t Au","source":"GA/DMIRS","layer_type":"operating_mine"},{"name":"A.R.M. Forrest St Plant","company":"NORTHERN STAR RESOURCES LTD","commodity":"Au","status":"Care and Maintenance","mine_type":"Processing Plant","state":"WA","region":"","deposit_type":"Infrastructure","lat":-30.75398699999994,"lng":121.4601080000001,"resource_mt":null,"grade":null,"grade_unit":"","source":"DMIRS_SLIP","layer_type":"developing_mine"},{"name":"Boulder / CIP Research","company":"NORTHERN STAR RESOURCES LTD","commodity":"Au","status":"Care and Maintenance","mine_type":"Processing Plant","state":"WA","region":"","deposit_type":"Infrastructure","lat":-30.783117999999945,"lng":121.47751100000005,"resource_mt":null,"grade":null,"grade_unit":"","source":"DMIRS_SLIP","layer_type":"developing_mine"},{"name":"Chaffers","company":"NORTHERN STAR RESOURCES LTD","commodity":"Au","status":"Care and Maintenance","mine_type":"Unspecified","state":"WA","region":"","deposit_type":"Mine","lat":-30.783545999999944,"lng":121.50361800000007,"resource_mt":null,"grade":null,"grade_unit":"","source":"DMIRS_SLIP","layer_type":"developing_mine"},{"name":"Fimiston Group","company":"NORTHERN STAR RESOURCES LTD","commodity":"Au","status":"Care and Maintenance","mine_type":"Unspecified","state":"WA","region":"","deposit_type":"Mine","lat":-30.783545999999944,"lng":121.50361800000007,"resource_mt":null,"grade":null,"grade_unit":"","source":"DMIRS_SLIP","layer_type":"developing_mine"},{"name":"Fimiston Underground Group","company":"NORTHERN STAR RESOURCES LTD","commodity":"Au","status":"Care and Maintenance","mine_type":"Unspecified","state":"WA","region":"","deposit_type":"Mine","lat":-30.783545999999944,"lng":121.50361800000007,"resource_mt":null,"grade":null,"grade_unit":"","source":"DMIRS_SLIP","layer_type":"developing_mine"},{"name":"Hannans North Tourist Mine","company":"NORTHERN STAR RESOURCES LTD","commodity":"Au, Ag","status":"Care and Maintenance","mine_type":"Shaft","state":"WA","region":"","deposit_type":"Mine","lat":-30.727876999999978,"lng":121.47060600000009,"resource_mt":null,"grade":null,"grade_unit":"","source":"DMIRS_SLIP","layer_type":"developing_mine"},{"name":"Hughes - Jundee","company":"Northern Star Resources","commodity":"Au, Ag","status":"Care and Maintenance","mine_type":"Openpit","state":"WA","region":"","deposit_type":"Mine","lat":-26.374566999999956,"lng":120.60187100000007,"resource_mt":null,"grade":null,"grade_unit":"","source":"DMIRS_SLIP","layer_type":"developing_mine"},{"name":"Jundee Clay Stockpile","company":"Northern Star Resources","commodity":"Au","status":"Care and Maintenance","mine_type":"Stockpile","state":"WA","region":"","deposit_type":"Infrastructure","lat":-26.357771999999954,"lng":120.59904400000005,"resource_mt":null,"grade":null,"grade_unit":"","source":"DMIRS_SLIP","layer_type":"developing_mine"},{"name":"Jundee Heap Leach","company":"Northern Star Resources","commodity":"Au","status":"Care and Maintenance","mine_type":"Processing Plant","state":"WA","region":"","deposit_type":"Infrastructure","lat":-26.467816999999968,"lng":120.6947120000001,"resource_mt":null,"grade":null,"grade_unit":"","source":"DMIRS_SLIP","layer_type":"developing_mine"},{"name":"Kalgoorlie Mint","company":"Northern Star Resources","commodity":"Au","status":"Care and Maintenance","mine_type":"Processing Plant","state":"WA","region":"","deposit_type":"Infrastructure","lat":-30.791736999999955,"lng":121.48250800000005,"resource_mt":null,"grade":null,"grade_unit":"","source":"DMIRS_SLIP","layer_type":"developing_mine"},{"name":"Lakewood TSF1","company":"NORTHERN STAR RESOURCES LTD","commodity":"Au","status":"Care and Maintenance","mine_type":"Tailings storage facility","state":"WA","region":"","deposit_type":"Infrastructure","lat":-30.79710599999993,"lng":121.54081200000007,"resource_mt":null,"grade":null,"grade_unit":"","source":"DMIRS_SLIP","layer_type":"developing_mine"},{"name":"Mt Percy Plant","company":"NORTHERN STAR RESOURCES LTD","commodity":"Au","status":"Care and Maintenance","mine_type":"Processing Plant","state":"WA","region":"","deposit_type":"Infrastructure","lat":-30.720046999999965,"lng":121.47980700000005,"resource_mt":null,"grade":null,"grade_unit":"","source":"DMIRS_SLIP","layer_type":"developing_mine"},{"name":"Oroya Plant (Removed)","company":"NORTHERN STAR RESOURCES LTD","commodity":"Au","status":"Care and Maintenance","mine_type":"Processing Plant","state":"WA","region":"","deposit_type":"Infrastructure","lat":-30.777557999999942,"lng":121.51001200000007,"resource_mt":null,"grade":null,"grade_unit":"","source":"DMIRS_SLIP","layer_type":"developing_mine"},{"name":"Thunderbox Zone A","company":"Northern Star Resources","commodity":"Au, Ag","status":"Care and Maintenance","mine_type":"Openpit","state":"WA","region":"","deposit_type":"Mine","lat":-28.19524999999993,"lng":121.00709600000005,"resource_mt":null,"grade":null,"grade_unit":"","source":"DMIRS_SLIP","layer_type":"developing_mine"},{"name":"Thunderbox Zone C","company":"Northern Star Resources","commodity":"Au, Ag","status":"Care and Maintenance","mine_type":"Openpit","state":"WA","region":"","deposit_type":"Mine","lat":-28.19051799999994,"lng":121.00719100000003,"resource_mt":null,"grade":null,"grade_unit":"","source":"DMIRS_SLIP","layer_type":"developing_mine"},{"name":"Thunderbox Zone D","company":"Northern Star Resources","commodity":"Au, Ag","status":"Care and Maintenance","mine_type":"Openpit","state":"WA","region":"","deposit_type":"Mine","lat":-28.183929999999975,"lng":121.0048230000001,"resource_mt":null,"grade":null,"grade_unit":"","source":"DMIRS_SLIP","layer_type":"developing_mine"},{"name":"Carosue Dam Accomodation Village","company":"Northern Star Resources","commodity":"Au, Ag","status":"Operating","mine_type":"Town/Village/Camp","state":"WA","region":"","deposit_type":"Infrastructure","lat":-30.18089199999997,"lng":122.3451070000001,"resource_mt":null,"grade":null,"grade_unit":"","source":"DMIRS_SLIP","layer_type":"operating_mine"},{"name":"Carosue Dam Group","company":"Northern Star Resources","commodity":"Au, Ag","status":"Operating","mine_type":"Road","state":"WA","region":"","deposit_type":"Infrastructure","lat":-30.151396999999974,"lng":122.34711900000002,"resource_mt":null,"grade":null,"grade_unit":"","source":"DMIRS_SLIP","layer_type":"operating_mine"},{"name":"Carosue Dam TSF Cell 1","company":"Northern Star Resources","commodity":"Au, Ag","status":"Operating","mine_type":"Tailings storage facility","state":"WA","region":"","deposit_type":"Infrastructure","lat":-30.139464999999973,"lng":122.34764600000005,"resource_mt":null,"grade":null,"grade_unit":"","source":"DMIRS_SLIP","layer_type":"operating_mine"},{"name":"Carosue Dam TSF Cell 2","company":"Northern Star Resources","commodity":"Au, Ag","status":"Operating","mine_type":"Tailings storage facility","state":"WA","region":"","deposit_type":"Infrastructure","lat":-30.13421699999998,"lng":122.34421000000009,"resource_mt":null,"grade":null,"grade_unit":"","source":"DMIRS_SLIP","layer_type":"operating_mine"},{"name":"Carosue Dam TSF Cell 3","company":"Northern Star Resources","commodity":"Au, Ag","status":"Operating","mine_type":"Tailings storage facility","state":"WA","region":"","deposit_type":"Infrastructure","lat":-30.139542999999946,"lng":122.33937700000001,"resource_mt":null,"grade":null,"grade_unit":"","source":"DMIRS_SLIP","layer_type":"operating_mine"},{"name":"CSI Crushing Plant","company":"NORTHERN STAR RESOURCES LTD","commodity":"Au","status":"Operating","mine_type":"Processing Plant","state":"WA","region":"","deposit_type":"Infrastructure","lat":-30.76018199999993,"lng":121.50120800000002,"resource_mt":null,"grade":null,"grade_unit":"","source":"DMIRS_SLIP","layer_type":"operating_mine"},{"name":"Fimiston Environmental Group","company":"NORTHERN STAR RESOURCES LTD","commodity":"Au, Ag","status":"Operating","mine_type":"Environment","state":"WA","region":"","deposit_type":"Other","lat":-30.787759999999935,"lng":121.5233770000001,"resource_mt":null,"grade":null,"grade_unit":"","source":"DMIRS_SLIP","layer_type":"operating_mine"},{"name":"Fimiston Environmental Group Tenements","company":"NORTHERN STAR RESOURCES LTD","commodity":"Au, Ag","status":"Operating","mine_type":"Environment","state":"WA","region":"","deposit_type":"Other","lat":-30.787759999999935,"lng":121.5233770000001,"resource_mt":null,"grade":null,"grade_unit":"","source":"DMIRS_SLIP","layer_type":"operating_mine"},{"name":"Fimiston - North Eastern WRD","company":"NORTHERN STAR RESOURCES LTD","commodity":"Au, Ag","status":"Operating","mine_type":"Dump (waste)","state":"WA","region":"","deposit_type":"Infrastructure","lat":-30.75516399999998,"lng":121.5133800000001,"resource_mt":null,"grade":null,"grade_unit":"","source":"DMIRS_SLIP","layer_type":"operating_mine"},{"name":"Fimiston - Northern WRD","company":"NORTHERN STAR RESOURCES LTD","commodity":"Au, Ag","status":"Operating","mine_type":"Dump (waste)","state":"WA","region":"","deposit_type":"Infrastructure","lat":-30.74510399999997,"lng":121.49678700000004,"resource_mt":null,"grade":null,"grade_unit":"","source":"DMIRS_SLIP","layer_type":"operating_mine"},{"name":"Fimiston - Oroya WRD","company":"NORTHERN STAR RESOURCES LTD","commodity":"Au","status":"Operating","mine_type":"Dump (waste)","state":"WA","region":"","deposit_type":"Infrastructure","lat":-30.773057999999935,"lng":121.52118500000006,"resource_mt":null,"grade":null,"grade_unit":"","source":"DMIRS_SLIP","layer_type":"operating_mine"},{"name":"Fimiston Plant","company":"NORTHERN STAR RESOURCES LTD","commodity":"Au","status":"Operating","mine_type":"Processing Plant","state":"WA","region":"","deposit_type":"Infrastructure","lat":-30.76644699999997,"lng":121.51060700000005,"resource_mt":null,"grade":null,"grade_unit":"","source":"DMIRS_SLIP","layer_type":"operating_mine"},{"name":"Fimiston Road and Infrastructure Corridor","company":"NORTHERN STAR RESOURCES LTD","commodity":"Au","status":"Operating","mine_type":"Road","state":"WA","region":"","deposit_type":"Infrastructure","lat":-30.782356999999934,"lng":121.53882700000008,"resource_mt":null,"grade":null,"grade_unit":"","source":"DMIRS_SLIP","layer_type":"operating_mine"},{"name":"Fimiston Superpit","company":"NORTHERN STAR RESOURCES LTD","commodity":"Au, Ag","status":"Operating","mine_type":"Openpit","state":"WA","region":"","deposit_type":"Mine","lat":-30.777957999999956,"lng":121.50353000000007,"resource_mt":null,"grade":null,"grade_unit":"","source":"DMIRS_SLIP","layer_type":"operating_mine"},{"name":"Fimiston - Trafalgar WRD","company":"NORTHERN STAR RESOURCES LTD","commodity":"Au, Ag","status":"Operating","mine_type":"Dump (waste)","state":"WA","region":"","deposit_type":"Infrastructure","lat":-30.787759999999935,"lng":121.5233770000001,"resource_mt":null,"grade":null,"grade_unit":"","source":"DMIRS_SLIP","layer_type":"operating_mine"},{"name":"Fimiston TSF1","company":"NORTHERN STAR RESOURCES LTD","commodity":"Au","status":"Operating","mine_type":"Tailings storage facility","state":"WA","region":"","deposit_type":"Infrastructure","lat":-30.74695399999996,"lng":121.51019600000006,"resource_mt":null,"grade":null,"grade_unit":"","source":"DMIRS_SLIP","layer_type":"operating_mine"},{"name":"Fimiston TSF2","company":"NORTHERN STAR RESOURCES LTD","commodity":"Au, Ag","status":"Operating","mine_type":"Tailings storage facility","state":"WA","region":"","deposit_type":"Infrastructure","lat":-30.751815999999963,"lng":121.54531300000008,"resource_mt":null,"grade":null,"grade_unit":"","source":"DMIRS_SLIP","layer_type":"operating_mine"},{"name":"Fimiston TSF2 Environmental Group","company":"NORTHERN STAR RESOURCES LTD","commodity":"Au, Ag","status":"Operating","mine_type":"Environment","state":"WA","region":"","deposit_type":"Other","lat":-30.751815999999963,"lng":121.54531300000008,"resource_mt":null,"grade":null,"grade_unit":"","source":"DMIRS_SLIP","layer_type":"operating_mine"},{"name":"Fimiston TSF2 Environmental Group Tenements","company":"NORTHERN STAR RESOURCES LTD","commodity":"Au, Ag","status":"Operating","mine_type":"Environment","state":"WA","region":"","deposit_type":"Other","lat":-30.751815999999963,"lng":121.54531300000008,"resource_mt":null,"grade":null,"grade_unit":"","source":"DMIRS_SLIP","layer_type":"operating_mine"},{"name":"Fimiston TSF2 Extension E, F Cells","company":"NORTHERN STAR RESOURCES LTD","commodity":"Au, Ag","status":"Operating","mine_type":"Tailings storage facility","state":"WA","region":"","deposit_type":"Infrastructure","lat":-30.750774999999976,"lng":121.5604360000001,"resource_mt":null,"grade":null,"grade_unit":"","source":"DMIRS_SLIP","layer_type":"operating_mine"},{"name":"Golden Mile Environmental Group","company":"NORTHERN STAR RESOURCES LTD","commodity":"Au, Ag","status":"Operating","mine_type":"Environment","state":"WA","region":"","deposit_type":"Other","lat":-30.777957999999956,"lng":121.50353000000007,"resource_mt":null,"grade":null,"grade_unit":"","source":"DMIRS_SLIP","layer_type":"operating_mine"},{"name":"Golden Mile Environmental Group Tenements","company":"NORTHERN STAR RESOURCES LTD","commodity":"Au, Ag","status":"Operating","mine_type":"Environment","state":"WA","region":"","deposit_type":"Other","lat":-30.777957999999956,"lng":121.50353000000007,"resource_mt":null,"grade":null,"grade_unit":"","source":"DMIRS_SLIP","layer_type":"operating_mine"},{"name":"Golden Mile - Super Pit Group","company":"NORTHERN STAR RESOURCES LTD","commodity":"Au, Ag","status":"Operating","mine_type":"Openpit","state":"WA","region":"","deposit_type":"Mine","lat":-30.777957999999956,"lng":121.50353000000007,"resource_mt":null,"grade":null,"grade_unit":"","source":"DMIRS_SLIP","layer_type":"operating_mine"},{"name":"Golden Pike","company":"NORTHERN STAR RESOURCES LTD","commodity":"Au, Ag","status":"Operating","mine_type":"Openpit","state":"WA","region":"","deposit_type":"Mine","lat":-30.776538999999957,"lng":121.5020760000001,"resource_mt":null,"grade":null,"grade_unit":"","source":"DMIRS_SLIP","layer_type":"operating_mine"},{"name":"Golden Pyke UG Exploration Drive","company":"NORTHERN STAR RESOURCES LTD","commodity":"Au, Ag","status":"Operating","mine_type":"Decline","state":"WA","region":"","deposit_type":"Mine","lat":-30.771101999999928,"lng":121.49683700000003,"resource_mt":null,"grade":null,"grade_unit":"","source":"DMIRS_SLIP","layer_type":"operating_mine"},{"name":"Jundee Airstrip","company":"Northern Star Resources","commodity":"Au","status":"Operating","mine_type":"Airstrip","state":"WA","region":"","deposit_type":"Infrastructure","lat":-26.422427999999968,"lng":120.57316500000002,"resource_mt":null,"grade":null,"grade_unit":"","source":"DMIRS_SLIP","layer_type":"operating_mine"},{"name":"Jundee Drillcore Laydown Area","company":"Northern Star Resources","commodity":"Au","status":"Operating","mine_type":"Other","state":"WA","region":"","deposit_type":"Infrastructure","lat":-26.359313999999983,"lng":120.62748800000008,"resource_mt":null,"grade":null,"grade_unit":"","source":"DMIRS_SLIP","layer_type":"operating_mine"},{"name":"Jundee Group","company":"Northern Star Resources","commodity":"Au","status":"Operating","mine_type":"Road","state":"WA","region":"","deposit_type":"Infrastructure","lat":-26.55645899999996,"lng":120.78914600000007,"resource_mt":null,"grade":null,"grade_unit":"","source":"DMIRS_SLIP","layer_type":"operating_mine"},{"name":"Jundee Pipeline Corridor","company":"Northern Star Resources","commodity":"Au","status":"Operating","mine_type":"Pipeline","state":"WA","region":"","deposit_type":"Infrastructure","lat":-26.38847199999998,"lng":120.60869800000012,"resource_mt":null,"grade":null,"grade_unit":"","source":"DMIRS_SLIP","layer_type":"operating_mine"},{"name":"Jundee Plant","company":"Northern Star Resources","commodity":"Au","status":"Operating","mine_type":"Processing Plant","state":"WA","region":"","deposit_type":"Infrastructure","lat":-26.358273999999938,"lng":120.61850200000003,"resource_mt":null,"grade":null,"grade_unit":"","source":"DMIRS_SLIP","layer_type":"operating_mine"},{"name":"Jundee Roads and Infrastructure Corridor","company":"Northern Star Resources","commodity":"Au","status":"Operating","mine_type":"Road","state":"WA","region":"","deposit_type":"Infrastructure","lat":-26.55645899999996,"lng":120.78914600000007,"resource_mt":null,"grade":null,"grade_unit":"","source":"DMIRS_SLIP","layer_type":"operating_mine"},{"name":"Jundee TSF2","company":"Northern Star Resources","commodity":"Au","status":"Operating","mine_type":"Tailings storage facility","state":"WA","region":"","deposit_type":"Infrastructure","lat":-26.339695999999947,"lng":120.62240800000006,"resource_mt":null,"grade":null,"grade_unit":"","source":"DMIRS_SLIP","layer_type":"operating_mine"},{"name":"Jundee TSF3","company":"Northern Star Resources","commodity":"Au","status":"Operating","mine_type":"Tailings storage facility","state":"WA","region":"","deposit_type":"Infrastructure","lat":-26.38332399999996,"lng":120.57337400000006,"resource_mt":null,"grade":null,"grade_unit":"","source":"DMIRS_SLIP","layer_type":"operating_mine"},{"name":"Jundee Underground Group","company":"Northern Star Resources","commodity":"Au, Ag","status":"Operating","mine_type":"Decline","state":"WA","region":"","deposit_type":"Mine","lat":-26.37253499999997,"lng":120.6041130000001,"resource_mt":null,"grade":null,"grade_unit":"","source":"DMIRS_SLIP","layer_type":"operating_mine"},{"name":"Jundee Village","company":"Northern Star Resources","commodity":"Au","status":"Operating","mine_type":"Town/Village/Camp","state":"WA","region":"","deposit_type":"Infrastructure","lat":-26.39505799999995,"lng":120.63821200000007,"resource_mt":null,"grade":null,"grade_unit":"","source":"DMIRS_SLIP","layer_type":"operating_mine"},{"name":"Kalgoorlie Container Terminal / AWR","company":"Northern Star Resources","commodity":"Fe","status":"Operating","mine_type":"Handling-loading-storage","state":"WA","region":"","deposit_type":"Infrastructure","lat":-30.776286999999968,"lng":121.42461000000003,"resource_mt":null,"grade":null,"grade_unit":"","source":"DMIRS_SLIP","layer_type":"operating_mine"},{"name":"Kalgoorlie - Hunter St Goldroom","company":"Northern Star Resources","commodity":"Au","status":"Operating","mine_type":"Processing Plant","state":"WA","region":"","deposit_type":"Infrastructure","lat":-30.77821799999998,"lng":121.44111100000009,"resource_mt":null,"grade":null,"grade_unit":"","source":"DMIRS_SLIP","layer_type":"operating_mine"},{"name":"Kaltails Environmental Group","company":"NORTHERN STAR RESOURCES LTD","commodity":"Au","status":"Operating","mine_type":"Environment","state":"WA","region":"","deposit_type":"Other","lat":-30.798326999999972,"lng":121.56401300000005,"resource_mt":null,"grade":null,"grade_unit":"","source":"DMIRS_SLIP","layer_type":"operating_mine"},{"name":"Kaltails Environmental Group Tenements","company":"NORTHERN STAR RESOURCES LTD","commodity":"Au","status":"Operating","mine_type":"Environment","state":"WA","region":"","deposit_type":"Other","lat":-30.798326999999972,"lng":121.56401300000005,"resource_mt":null,"grade":null,"grade_unit":"","source":"DMIRS_SLIP","layer_type":"operating_mine"},{"name":"Kaltails TSF","company":"NORTHERN STAR RESOURCES LTD","commodity":"Au","status":"Operating","mine_type":"Tailings storage facility","state":"WA","region":"","deposit_type":"Infrastructure","lat":-30.798326999999972,"lng":121.56401300000005,"resource_mt":null,"grade":null,"grade_unit":"","source":"DMIRS_SLIP","layer_type":"operating_mine"},{"name":"KCGM Open Pit Workshops","company":"Northern Star Resources","commodity":"Au","status":"Operating","mine_type":"Building","state":"WA","region":"","deposit_type":"Infrastructure","lat":-30.766197999999974,"lng":121.51678800000002,"resource_mt":null,"grade":null,"grade_unit":"","source":"DMIRS_SLIP","layer_type":"operating_mine"},{"name":"KCGM Primary Crushing Plant","company":"Northern Star Resources","commodity":"Au","status":"Operating","mine_type":"Processing Plant","state":"WA","region":"","deposit_type":"Infrastructure","lat":-30.767061999999953,"lng":121.50712800000008,"resource_mt":null,"grade":null,"grade_unit":"","source":"DMIRS_SLIP","layer_type":"operating_mine"},{"name":"Lakewood - Fimtails Plant","company":"NORTHERN STAR RESOURCES LTD","commodity":"Au","status":"Operating","mine_type":"Processing Plant","state":"WA","region":"","deposit_type":"Infrastructure","lat":-30.800756999999976,"lng":121.53991200000007,"resource_mt":null,"grade":null,"grade_unit":"","source":"DMIRS_SLIP","layer_type":"operating_mine"},{"name":"Lakewood Mill Environmental Group","company":"NORTHERN STAR RESOURCES LTD","commodity":"Au","status":"Operating","mine_type":"Environment","state":"WA","region":"","deposit_type":"Other","lat":-30.800903999999946,"lng":121.53464300000007,"resource_mt":null,"grade":null,"grade_unit":"","source":"DMIRS_SLIP","layer_type":"operating_mine"},{"name":"Lakewood Mill Environmental Group Tenements","company":"NORTHERN STAR RESOURCES LTD","commodity":"Au","status":"Operating","mine_type":"Environment","state":"WA","region":"","deposit_type":"Other","lat":-30.800903999999946,"lng":121.53464300000007,"resource_mt":null,"grade":null,"grade_unit":"","source":"DMIRS_SLIP","layer_type":"operating_mine"},{"name":"Lakewood Transport and Infrastructure Corridor","company":"NORTHERN STAR RESOURCES LTD","commodity":"Au","status":"Operating","mine_type":"Road","state":"WA","region":"","deposit_type":"Infrastructure","lat":-30.805308999999966,"lng":121.53766700000006,"resource_mt":null,"grade":null,"grade_unit":"","source":"DMIRS_SLIP","layer_type":"operating_mine"},{"name":"Lakewood TSF East Cell","company":"NORTHERN STAR RESOURCES LTD","commodity":"Au","status":"Operating","mine_type":"Tailings storage facility","state":"WA","region":"","deposit_type":"Infrastructure","lat":-30.79796299999998,"lng":121.54378500000007,"resource_mt":null,"grade":null,"grade_unit":"","source":"DMIRS_SLIP","layer_type":"operating_mine"},{"name":"Lakewood TSF West Cell","company":"NORTHERN STAR RESOURCES LTD","commodity":"Au","status":"Operating","mine_type":"Tailings storage facility","state":"WA","region":"","deposit_type":"Infrastructure","lat":-30.795432999999946,"lng":121.53740800000003,"resource_mt":null,"grade":null,"grade_unit":"","source":"DMIRS_SLIP","layer_type":"operating_mine"},{"name":"Morrison","company":"NORTHERN STAR RESOURCES LTD","commodity":"Au, Ag","status":"Operating","mine_type":"Openpit","state":"WA","region":"","deposit_type":"Mine","lat":-30.789470999999935,"lng":121.50847600000009,"resource_mt":null,"grade":null,"grade_unit":"","source":"DMIRS_SLIP","layer_type":"operating_mine"},{"name":"Mt Charlotte","company":"NORTHERN STAR RESOURCES LTD","commodity":"Au, Ag","status":"Operating","mine_type":"Shaft","state":"WA","region":"","deposit_type":"Mine","lat":-30.74642799999998,"lng":121.4809140000001,"resource_mt":null,"grade":null,"grade_unit":"","source":"DMIRS_SLIP","layer_type":"operating_mine"},{"name":"NSR Regional Environmental Group","company":"NORTHERN STAR RESOURCES LTD","commodity":"Au","status":"Operating","mine_type":"Environment","state":"WA","region":"","deposit_type":"Other","lat":-30.70863799999995,"lng":121.48850300000004,"resource_mt":null,"grade":null,"grade_unit":"","source":"DMIRS_SLIP","layer_type":"operating_mine"},{"name":"NSR Regional Environmental Group Tenements","company":"NORTHERN STAR RESOURCES LTD","commodity":"Au","status":"Operating","mine_type":"Environment","state":"WA","region":"","deposit_type":"Other","lat":-30.70863799999995,"lng":121.48850300000004,"resource_mt":null,"grade":null,"grade_unit":"","source":"DMIRS_SLIP","layer_type":"operating_mine"},{"name":"Orelia-Thunderbox Haul Road and Infrastructure Corridor","company":"Northern Star Resources","commodity":"Au, Ag","status":"Operating","mine_type":"Road","state":"WA","region":"","deposit_type":"Infrastructure","lat":-27.786900999999943,"lng":120.85599500000001,"resource_mt":null,"grade":null,"grade_unit":"","source":"DMIRS_SLIP","layer_type":"operating_mine"},{"name":"Sam Pearce Decline","company":"NORTHERN STAR RESOURCES LTD","commodity":"Au, Ag","status":"Operating","mine_type":"Decline","state":"WA","region":"","deposit_type":"Mine","lat":-30.763643999999942,"lng":121.4969010000001,"resource_mt":null,"grade":null,"grade_unit":"","source":"DMIRS_SLIP","layer_type":"operating_mine"},{"name":"Slug Hill Prospecting / Edwards","company":"NORTHERN STAR RESOURCES LTD","commodity":"Au, Ag","status":"Operating","mine_type":"Scraping-Detecting area","state":"WA","region":"","deposit_type":"Mine","lat":-30.80113599999993,"lng":121.51541400000008,"resource_mt":null,"grade":null,"grade_unit":"","source":"DMIRS_SLIP","layer_type":"operating_mine"},{"name":"Thunderbox Administration Precinct","company":"Northern Star Resources","commodity":"Au, Ag","status":"Operating","mine_type":"Building","state":"WA","region":"","deposit_type":"Infrastructure","lat":-28.17939999999993,"lng":121.00076000000001,"resource_mt":null,"grade":null,"grade_unit":"","source":"DMIRS_SLIP","layer_type":"operating_mine"},{"name":"Thunderbox Environmental Group","company":"Northern Star Resources","commodity":"Au, Ag","status":"Operating","mine_type":"Environment","state":"WA","region":"","deposit_type":"Other","lat":-28.19051799999994,"lng":121.00719100000003,"resource_mt":null,"grade":null,"grade_unit":"","source":"DMIRS_SLIP","layer_type":"operating_mine"},{"name":"Thunderbox Environmental Group Tenements","company":"Northern Star Resources","commodity":"Au, Ag","status":"Operating","mine_type":"Environment","state":"WA","region":"","deposit_type":"Other","lat":-28.19051799999994,"lng":121.00719100000003,"resource_mt":null,"grade":null,"grade_unit":"","source":"DMIRS_SLIP","layer_type":"operating_mine"},{"name":"Thunderbox Plant","company":"Northern Star Resources","commodity":"Au, Ag","status":"Operating","mine_type":"Processing Plant","state":"WA","region":"","deposit_type":"Infrastructure","lat":-28.18099399999994,"lng":120.99976000000004,"resource_mt":null,"grade":null,"grade_unit":"","source":"DMIRS_SLIP","layer_type":"operating_mine"},{"name":"Thunderbox Resources Group","company":"Northern Star Resources","commodity":"Au, Ag","status":"Operating","mine_type":"Decline","state":"WA","region":"","deposit_type":"Mine","lat":-28.195990999999935,"lng":121.00729500000011,"resource_mt":null,"grade":null,"grade_unit":"","source":"DMIRS_SLIP","layer_type":"operating_mine"},{"name":"Thunderbox ROM","company":"Northern Star Resources","commodity":"Au, Ag","status":"Operating","mine_type":"Stockpile","state":"WA","region":"","deposit_type":"Infrastructure","lat":-28.183580999999947,"lng":121.0008610000001,"resource_mt":null,"grade":null,"grade_unit":"","source":"DMIRS_SLIP","layer_type":"operating_mine"}],"mine_count":80,"mines_by_status":{"Operating":64,"Care and Maintenance":16},"commodities_mined":["Ag","Au","Fe","Gold"],"deposits":[{"name":"Kalgoorlie Goldfield","commodity":"Gold","deposit_type":"Orogenic Gold (Greenstone Belt)","state":"WA","region":"Goldfields-Esperance","resource_size":"World Class"}],"deposit_count":1,"boreholes":[{"name":"UCGD015","purpose":"Mineral Exploration - Golden Mile","depth_m":447.57998657,"drill_method":"DD","year_drilled":2019,"commodity":"GOLD","driller":"NORTHERN STAR RESOURCES LTD","state":"WA","lat":-30.723441153999943,"lng":121.47647055900006},{"name":"SJGC002","purpose":"Mineral Exploration - Golden Mile","depth_m":645.20001221,"drill_method":"DD","year_drilled":2019,"commodity":"GOLD","driller":"NORTHERN STAR RESOURCES LTD","state":"WA","lat":-30.723433111999952,"lng":121.47534902600012},{"name":"SCGD047B1","purpose":"Mineral Exploration - Golden Mile","depth_m":1231.19995117,"drill_method":"DD","year_drilled":2019,"commodity":"GOLD","driller":"NORTHERN STAR RESOURCES LTD","state":"WA","lat":-30.778037496999957,"lng":121.51436120300002},{"name":"SCGD040A1","purpose":"Mineral Exploration - Golden Mile","depth_m":1099.02001953,"drill_method":"DD","year_drilled":2019,"commodity":"GOLD","driller":"NORTHERN STAR RESOURCES LTD","state":"WA","lat":-30.790074299999958,"lng":121.50119052500008},{"name":"SCGD038F2","purpose":"Mineral Exploration - Golden Mile","depth_m":1190.90002441,"drill_method":"DD","year_drilled":2019,"commodity":"GOLD","driller":"NORTHERN STAR RESOURCES LTD","state":"WA","lat":-30.788584836999974,"lng":121.50011296900004},{"name":"MYGD021","purpose":"Mineral Exploration - Golden Mile","depth_m":425.29998779,"drill_method":"DD","year_drilled":2019,"commodity":"GOLD","driller":"NORTHERN STAR RESOURCES LTD","state":"WA","lat":-30.717236277999973,"lng":121.46602203600003},{"name":"MYGD019","purpose":"Mineral Exploration - Golden Mile","depth_m":868.76000977,"drill_method":"DD","year_drilled":2019,"commodity":"GOLD","driller":"NORTHERN STAR RESOURCES LTD","state":"WA","lat":-30.719981496999935,"lng":121.47167181600003},{"name":"MYGD016","purpose":"Mineral Exploration - Golden Mile","depth_m":333.47000122,"drill_method":"DD","year_drilled":2019,"commodity":"GOLD","driller":"NORTHERN STAR RESOURCES LTD","state":"WA","lat":-30.730844158999957,"lng":121.47852283500004},{"name":"MYGD006","purpose":"Mineral Exploration - Golden Mile","depth_m":344.72000122,"drill_method":"DD","year_drilled":2019,"commodity":"GOLD","driller":"NORTHERN STAR RESOURCES LTD","state":"WA","lat":-30.726959861999944,"lng":121.4746450780001},{"name":"MYGD005","purpose":"Mineral Exploration - Golden Mile","depth_m":577.4699707,"drill_method":"DD","year_drilled":2019,"commodity":"GOLD","driller":"NORTHERN STAR RESOURCES LTD","state":"WA","lat":-30.727825635999977,"lng":121.47517598900004},{"name":"FNUD0058","purpose":"Mineral Exploration - Golden Mile","depth_m":834.15997314,"drill_method":"DD","year_drilled":2019,"commodity":"GOLD","driller":"NORTHERN STAR RESOURCES LTD","state":"WA","lat":-30.767627493999953,"lng":121.49339344300006},{"name":"FNUD0055","purpose":"Mineral Exploration - Golden Mile","depth_m":795.09997559,"drill_method":"DD","year_drilled":2019,"commodity":"GOLD","driller":"NORTHERN STAR RESOURCES LTD","state":"WA","lat":-30.76761619699994,"lng":121.49339175500006},{"name":"FNUD0045","purpose":"Mineral Exploration - Golden Mile","depth_m":842.9699707,"drill_method":"DD","year_drilled":2019,"commodity":"GOLD","driller":"NORTHERN STAR RESOURCES LTD","state":"WA","lat":-30.77070957899997,"lng":121.49445548400001},{"name":"FNUD0038","purpose":"Mineral Exploration - Golden Mile","depth_m":897.2199707,"drill_method":"DD","year_drilled":2019,"commodity":"GOLD","driller":"NORTHERN STAR RESOURCES LTD","state":"WA","lat":-30.77170979999994,"lng":121.4959744030001},{"name":"FNUD0025","purpose":"Mineral Exploration - Golden Mile","depth_m":658.42999268,"drill_method":"DD","year_drilled":2019,"commodity":"GOLD","driller":"NORTHERN STAR RESOURCES LTD","state":"WA","lat":-30.762271579999947,"lng":121.49579506700002},{"name":"DKUD046B","purpose":"Mineral Exploration - Golden Mile","depth_m":507.42001343,"drill_method":"DD","year_drilled":2019,"commodity":"GOLD","driller":"NORTHERN STAR RESOURCES LTD","state":"WA","lat":-30.745397810999975,"lng":121.4862751710001},{"name":"HTAC006","purpose":"Mineral Exploration - Lake Violet","depth_m":44.0,"drill_method":"AC","year_drilled":2017,"commodity":"GOLD","driller":"NORTHERN STAR RESOURCES LTD","state":"WA","lat":-26.69130484799996,"lng":120.93216641800007},{"name":"HTAC024","purpose":"Mineral Exploration - Lake Violet","depth_m":76.0,"drill_method":"AC","year_drilled":2017,"commodity":"GOLD","driller":"NORTHERN STAR RESOURCES LTD","state":"WA","lat":-26.687139204999937,"lng":120.94042588600007},{"name":"HTAC023","purpose":"Mineral Exploration - Lake Violet","depth_m":61.0,"drill_method":"AC","year_drilled":2017,"commodity":"GOLD","driller":"NORTHERN STAR RESOURCES LTD","state":"WA","lat":-26.687083662999953,"lng":120.93835046100003},{"name":"HTAC022","purpose":"Mineral Exploration - Lake Violet","depth_m":73.0,"drill_method":"AC","year_drilled":2017,"commodity":"GOLD","driller":"NORTHERN STAR RESOURCES LTD","state":"WA","lat":-26.68708986599995,"lng":120.93634989600002},{"name":"HTAC021","purpose":"Mineral Exploration - Lake Violet","depth_m":62.0,"drill_method":"AC","year_drilled":2017,"commodity":"GOLD","driller":"NORTHERN STAR RESOURCES LTD","state":"WA","lat":-26.687030592999974,"lng":120.93435702500005},{"name":"HTAC020","purpose":"Mineral Exploration - Lake Violet","depth_m":53.0,"drill_method":"AC","year_drilled":2017,"commodity":"GOLD","driller":"NORTHERN STAR RESOURCES LTD","state":"WA","lat":-26.686996500999953,"lng":120.93238477200009},{"name":"HTAC019","purpose":"Mineral Exploration - Lake Violet","depth_m":54.0,"drill_method":"AC","year_drilled":2017,"commodity":"GOLD","driller":"NORTHERN STAR RESOURCES LTD","state":"WA","lat":-26.686983504999944,"lng":120.93035824700007},{"name":"HTAC011","purpose":"Mineral Exploration - Lake Violet","depth_m":59.0,"drill_method":"AC","year_drilled":2017,"commodity":"GOLD","driller":"NORTHERN STAR RESOURCES LTD","state":"WA","lat":-26.690857105999953,"lng":120.9421710250001},{"name":"HTAC010","purpose":"Mineral Exploration - Lake Violet","depth_m":78.0,"drill_method":"AC","year_drilled":2017,"commodity":"GOLD","driller":"NORTHERN STAR RESOURCES LTD","state":"WA","lat":-26.690941582999983,"lng":120.94019650500002},{"name":"HTAC009","purpose":"Mineral Exploration - Lake Violet","depth_m":83.0,"drill_method":"AC","year_drilled":2017,"commodity":"GOLD","driller":"NORTHERN STAR RESOURCES LTD","state":"WA","lat":-26.691012911999962,"lng":120.93818485300005},{"name":"HTAC008","purpose":"Mineral Exploration - Lake Violet","depth_m":80.0,"drill_method":"AC","year_drilled":2017,"commodity":"GOLD","driller":"NORTHERN STAR RESOURCES LTD","state":"WA","lat":-26.691109920999963,"lng":120.93613439400008},{"name":"HTAC007","purpose":"Mineral Exploration - Lake Violet","depth_m":50.0,"drill_method":"AC","year_drilled":2017,"commodity":"GOLD","driller":"NORTHERN STAR RESOURCES LTD","state":"WA","lat":-26.691214688999935,"lng":120.93419369700007},{"name":"KFRC24005","purpose":"Mineral Exploration - Bronzewing","depth_m":70.0,"drill_method":"RC","year_drilled":2013,"commodity":"GOLD","driller":"NORTHERN STAR RESOURCES LTD","state":"WA","lat":-27.473677083999974,"lng":121.03038529500009},{"name":"TRAC005","purpose":"Mineral Exploration - Bronzewing","depth_m":63.0,"drill_method":"AC","year_drilled":2013,"commodity":"GOLD","driller":"NORTHERN STAR RESOURCES LTD","state":"WA","lat":-27.47240680799996,"lng":121.00157463200003},{"name":"KFRC24012","purpose":"Mineral Exploration - Bronzewing","depth_m":76.0,"drill_method":"RC","year_drilled":2013,"commodity":"GOLD","driller":"NORTHERN STAR RESOURCES LTD","state":"WA","lat":-27.475127606999934,"lng":121.03185866600006},{"name":"KFRC24004","purpose":"Mineral Exploration - Bronzewing","depth_m":70.0,"drill_method":"RC","year_drilled":2013,"commodity":"GOLD","driller":"NORTHERN STAR RESOURCES LTD","state":"WA","lat":-27.47396869299996,"lng":121.03021730300009},{"name":"TRAC004","purpose":"Mineral Exploration - Bronzewing","depth_m":34.0,"drill_method":"AC","year_drilled":2013,"commodity":"GOLD","driller":"NORTHERN STAR RESOURCES LTD","state":"WA","lat":-27.471635264999975,"lng":121.00063745400007},{"name":"KFRC24010","purpose":"Mineral Exploration - Bronzewing","depth_m":58.0,"drill_method":"RC","year_drilled":2013,"commodity":"GOLD","driller":"NORTHERN STAR RESOURCES LTD","state":"WA","lat":-27.473960701999943,"lng":121.03133912200008},{"name":"KFRC24002","purpose":"Mineral Exploration - Bronzewing","depth_m":52.0,"drill_method":"RC","year_drilled":2013,"commodity":"GOLD","driller":"NORTHERN STAR RESOURCES LTD","state":"WA","lat":-27.474532014999966,"lng":121.02993575400001},{"name":"TRAC002","purpose":"Mineral Exploration - Bronzewing","depth_m":22.0,"drill_method":"AC","year_drilled":2013,"commodity":"GOLD","driller":"NORTHERN STAR RESOURCES LTD","state":"WA","lat":-27.475995222999984,"lng":121.00321989600002},{"name":"KFRC24011","purpose":"Mineral Exploration - Bronzewing","depth_m":52.0,"drill_method":"RC","year_drilled":2013,"commodity":"GOLD","driller":"NORTHERN STAR RESOURCES LTD","state":"WA","lat":-27.47541121599994,"lng":121.03168641600007},{"name":"KFRC24003","purpose":"Mineral Exploration - Bronzewing","depth_m":58.0,"drill_method":"RC","year_drilled":2013,"commodity":"GOLD","driller":"NORTHERN STAR RESOURCES LTD","state":"WA","lat":-27.47427034699996,"lng":121.03007414500007},{"name":"TRAC003","purpose":"Mineral Exploration - Bronzewing","depth_m":22.0,"drill_method":"AC","year_drilled":2013,"commodity":"GOLD","driller":"NORTHERN STAR RESOURCES LTD","state":"WA","lat":-27.47435976199995,"lng":121.00056802600011},{"name":"KFRC24009","purpose":"Mineral Exploration - Bronzewing","depth_m":70.0,"drill_method":"RC","year_drilled":2013,"commodity":"GOLD","driller":"NORTHERN STAR RESOURCES LTD","state":"WA","lat":-27.474237307999942,"lng":121.03121669900008},{"name":"KFRC24001","purpose":"Mineral Exploration - Bronzewing","depth_m":58.0,"drill_method":"RC","year_drilled":2013,"commodity":"GOLD","driller":"NORTHERN STAR RESOURCES LTD","state":"WA","lat":-27.47483085799996,"lng":121.02979241100002},{"name":"TRAC001","purpose":"Mineral Exploration - Bronzewing","depth_m":31.0,"drill_method":"AC","year_drilled":2013,"commodity":"GOLD","driller":"NORTHERN STAR RESOURCES LTD","state":"WA","lat":-27.47681737499994,"lng":121.00454072100001},{"name":"KFRC24008","purpose":"Mineral Exploration - Bronzewing","depth_m":88.0,"drill_method":"RC","year_drilled":2013,"commodity":"GOLD","driller":"NORTHERN STAR RESOURCES LTD","state":"WA","lat":-27.474513641999977,"lng":121.03104634900001},{"name":"TRAC008","purpose":"Mineral Exploration - Bronzewing","depth_m":47.0,"drill_method":"AC","year_drilled":2013,"commodity":"GOLD","driller":"NORTHERN STAR RESOURCES LTD","state":"WA","lat":-27.47330608699997,"lng":121.00323803300012},{"name":"KFRC24015","purpose":"Mineral Exploration - Bronzewing","depth_m":118.0,"drill_method":"RC","year_drilled":2013,"commodity":"GOLD","driller":"NORTHERN STAR RESOURCES LTD","state":"WA","lat":-27.474283786999933,"lng":121.03228963200002},{"name":"KFRC24007","purpose":"Mineral Exploration - Bronzewing","depth_m":58.0,"drill_method":"RC","year_drilled":2013,"commodity":"GOLD","driller":"NORTHERN STAR RESOURCES LTD","state":"WA","lat":-27.474832593999963,"lng":121.03091194100011},{"name":"TRAC007","purpose":"Mineral Exploration - Bronzewing","depth_m":55.0,"drill_method":"AC","year_drilled":2013,"commodity":"GOLD","driller":"NORTHERN STAR RESOURCES LTD","state":"WA","lat":-27.472457001999942,"lng":121.00192786200012},{"name":"KFRC24014","purpose":"Mineral Exploration - Bronzewing","depth_m":118.0,"drill_method":"RC","year_drilled":2013,"commodity":"GOLD","driller":"NORTHERN STAR RESOURCES LTD","state":"WA","lat":-27.47454648599995,"lng":121.03216139800008},{"name":"KFRC24006","purpose":"Mineral Exploration - Bronzewing","depth_m":52.0,"drill_method":"RC","year_drilled":2013,"commodity":"GOLD","driller":"NORTHERN STAR RESOURCES LTD","state":"WA","lat":-27.47511124999994,"lng":121.03075259800005},{"name":"TRAC006","purpose":"Mineral Exploration - Bronzewing","depth_m":43.0,"drill_method":"AC","year_drilled":2013,"commodity":"GOLD","driller":"NORTHERN STAR RESOURCES LTD","state":"WA","lat":-27.47520041799993,"lng":121.0019188330001},{"name":"KFRC24013","purpose":"Mineral Exploration - Bronzewing","depth_m":76.0,"drill_method":"RC","year_drilled":2013,"commodity":"GOLD","driller":"NORTHERN STAR RESOURCES LTD","state":"WA","lat":-27.47483856599996,"lng":121.03200099000003}],"borehole_count":51,"borehole_stats":{"total_holes":51,"total_meters_drilled":13862.9,"avg_depth_m":271.8,"max_depth_m":1231.19995117,"year_range":"2013-2019","drill_methods":["AC","RC","DD"]},"tenements":[],"tenement_count":0},"drilling_summary":{"intercepts_by_commodity":[{"commodity":"Ag","intercept_count":16,"best_grade":9.7,"avg_grade":8.45,"max_interval_m":2.2,"avg_interval_m":1.85,"best_grade_thickness":15.84,"significant_intercepts":16}]},"tenement_attribution":{"status":"no_tenements","note":"No tenement data for spatial attribution"},"resource_inventory":{"by_commodity":{"Au":{"measured_mt":0,"indicated_mt":0,"inferred_mt":210.0,"measured_grade":0,"indicated_grade":0,"inferred_grade":4.1,"measured_contained":0,"indicated_contained":0,"inferred_contained":15078689.0,"proven_mt":0,"probable_mt":0,"proven_contained":0,"probable_contained":0,"grade_unit":"g/t Au","contained_unit":"","source":"DMIRS_supplemental","total_resource_mt":210.0,"total_reserve_mt":0,"m_and_i_mt":0,"total_contained_metal":15078689.0,"reserve_contained_metal":0}},"commodity_count":1,"total_resource_mt":210.0,"total_reserve_mt":0},"valuation_metrics":{"total_in_situ_value_usd":39958525850.0,"isv_breakdown":[{"commodity":"Au","contained_metal":15078689.0,"contained_unit":"oz","spot_price_usd":2650.0,"in_situ_value_usd":39958525850.0}]},"summary":{"company":"Northern Star","market_cap_usd":null,"share_price":null,"projects_count":0,"projects_with_resources":0,"projects_with_reserves":0,"projects_with_economics":0,"total_resource_mt":210.0,"total_reserve_mt":0,"commodities":["Au"],"total_drill_holes":0,"total_meters_drilled":0,"dmirs_mine_sites":80,"dmirs_deposits":1,"dmirs_boreholes":51,"tenement_count":0,"data_within_tenements":{"drillholes":0,"geochem_samples":0,"mine_sites":0},"in_situ_value_usd":39958525850.0,"isv_commodity_count":1,"price_to_isv":null,"ev_to_isv":null,"total_project_npv_usd":null,"p_nav":null,"nav_per_share":null,"data_sources":["DMIRS_mine_sites","DMIRS_boreholes"]}}
